Name	saMskRta-nAma	Lat	Long	Timezone	TZFloat
Amarnath		40.3801706	84.3374927	Asia/Calcutta	5.5
Bengaluru	kalyANapurI	12:58:12	77:33:36	Asia/Calcutta	5.5
Bangalore	kalyANapurI	12:58:12	77:33:36	Asia/Calcutta	5.5
Hyderabad	bhAgyanagaram	17.3615104	78.474743	Asia/Calcutta	5.5
Bhagyanagaram	bhAgyanagaram	17.3615104	78.474743	Asia/Calcutta	5.5
BrahmaDesha	brahma-dEzaH	8.7324832	77.4427299	Asia/Calcutta	5.5
Chennai	madrapurI	13:05:24	80:16:12	Asia/Calcutta	5.5
Coimbatore		10.966657792836907	76.90954363309359	Asia/Calcutta	5.5
Delhi	indra-prasthaH	28.5676528	77.1636295	Asia/Calcutta	5.5
Dwaraka	dvArakApurI	22.2467347	68.9606388	Asia/Calcutta	5.5
Hampi	vijayanagaram	15.3350	76.46	Asia/Calcutta	5.5
Kamakhya	kAmAkhyA	26.1664187	91.7029625	Asia/Calcutta	5.5
Kanchipuram	kAJcI	12.8438285	79.6994636	Asia/Calcutta	5.5
Kanyakumari		8.0805248	77.547384	Asia/Calcutta	5.5
Kashi	kAzI	25.3109634	83.0107418	Asia/Calcutta	5.5
Varanasi	vArANasI	25.3109634	83.0107418	Asia/Calcutta	5.5
Madurai		9.919525	78.1187598	Asia/Calcutta	5.5
Mumbai	mumbApurI	18:57:36	72:49:12	Asia/Calcutta	5.5
Mysore	mahiSapurI	12.2958	76.6394	Asia/Calcutta	5.5
Nerur	nerUr	10.9967	78.156	Asia/Calcutta	5.5
Prayag	prayAgaH	25.4339768	81.8784979	Asia/Calcutta	5.5
Prayagraj	prayAgaH	25.4339768	81.8784979	Asia/Calcutta	5.5
Pune	puNyanagarI	18:31:48	73:50:24	Asia/Calcutta	5.5
Vijayawada	vijayavADA	16.5128023	80.6039116	Asia/Calcutta	5.5
sahakAra nagar, bengaLUru	sahakAra-nagaram, kalyANapurI	13:03:48.9	77:34:45.7	Asia/Calcutta	5.5
Thanjavur	taJjAvUr	10:46:59	79:07:51	Asia/Calcutta	5.5
Tirupati	tirupati	13.646939287359896	79.42132439583985	Asia/Calcutta	5.5
Ujjain	ujjayinI	23.1765	75.7885	Asia/Calcutta	5.5
AbuDhabi		24:28:48	54:22:12	Asia/Dubai	4.0
Athens		37.9908372	23.7383394	Europe/Athens	3.0
Berlin		52:31:12	13:22:48	Europe/Berlin	2.0
Cupertino		37:19:23	-122:01:56	America/Los_Angeles	-7.0
Sacramento		38.5617339	-121.46143	America/Los_Angeles	-7.0
Flemington		40.5084323	-74.8599965	America/New_York	-4.0
NewYork		40.6217543	-74.6111683	America/New_York	-4.0
WashingtonDC		38.8937545	-77.014576	America/New_York	-4.0
Charlotte		35.227085	-80.843124	America/New_York	-4.0
Denver		39.7643389	-104.8551114	America/Denver	-6.0
LosAngeles		34.020479	-118.4117325	America/Los_Angeles	-7.0
Aurora		41.7509724	-88.3067189	America/Chicago	-5.0
Chicago		41.8337329	-87.7319639	America/Chicago	-5.0
Dallas		32.8206645	-96.7315525	America/Chicago	-5.0
Dubai		25:16:12	55:19:48	Asia/Dubai	4.0
Dusseldorf		51:14:24	6:47:24	Europe/Berlin	2.0
Frankfurt		50:07:12	8:40:48	Europe/Berlin	2.0
Heidelberg		49:25:09	8:40:05	Europe/Berlin	2.0
London		51:30	0:07:00	Europe/London	1.0
Leiden		52.1570166	4.4855084	Europe/Amsterdam	2.0
Harrow		51.5767963	-0.30448	Europe/London	1.0
Muscat		23:36:36	58:32:24	Asia/Muscat	4.0
Orinda		37:51:38	-122:10:59	America/Los_Angeles	-7.0
PaloAlto		37:23:59	-122:08:34	America/Los_Angeles	-7.0
Robbinsville		40.222877	-74.6630863	America/New_York	-4.0
Cary		35.7703553	-78.9703931	America/New_York	-4.0
Paris		48:51:36	2:20:24	Europe/Paris	2.0
Prague		50:04:48	14:25:48	Europe/Bratislava	2.0
Tampa		27:58:15	-82:27:53	US/Eastern	-4.0
Zurich		47:22:48	8:32:24	Europe/Zurich	2.0
Abohar		30.12	74.29	Asia/Calcutta	5.5
Abu		24.59	72.71	Asia/Calcutta	5.5
Addanki		15.81	79.97	Asia/Calcutta	5.5
Adilabad		19.67	78.53	Asia/Calcutta	5.5
Adirampattinam		10.3376115	79.3645408	Asia/Calcutta	5.5
Adoni		15.63	77.28	Asia/Calcutta	5.5
Agartala		23.83	91.27	Asia/Calcutta	5.5
Agra		27.18	78.02	Asia/Calcutta	5.5
Ahmadnagar		19.08	74.73	Asia/Calcutta	5.5
Ahmedabad		23.03	72.58	Asia/Calcutta	5.5
Aizawl		23.71	92.72	Asia/Calcutta	5.5
Ajmer		26.47	74.64	Asia/Calcutta	5.5
Akola		20.73	77	Asia/Calcutta	5.5
Aligarh		27.88	78.08	Asia/Calcutta	5.5
Alleppey		9.5	76.37	Asia/Calcutta	5.5
Alwar		27.57	76.62	Asia/Calcutta	5.5
Amalapuram		16.58	82.02	Asia/Calcutta	5.5
Ambala		30.38	76.77	Asia/Calcutta	5.5
Ambasamudram		8.7124228	77.4159983	Asia/Calcutta	5.5
Ambur		12.7821459	78.6854269	Asia/Calcutta	5.5
Amravati		20.93	77.75	Asia/Calcutta	5.5
Amritsar		31.62	74.85	Asia/Calcutta	5.5
Amudalavalasa		18.42	83.9	Asia/Calcutta	5.5
AnaimalaiHills		10.2999993	76.9824904	Asia/Calcutta	5.5
Anakapalle		17.68	83.02	Asia/Calcutta	5.5
Anantapur		14.68	77.6	Asia/Calcutta	5.5
Angamali		10.2	76.39	Asia/Calcutta	5.5
Arakkonam		13.0742446	79.6253007	Asia/Calcutta	5.5
Arani		12.6704234	79.2728161	Asia/Calcutta	5.5
Aranthangi		10.1715907	78.9890234	Asia/Calcutta	5.5
Arcot		12.8994474	79.3013385	Asia/Calcutta	5.5
Armur		18.79	78.29	Asia/Calcutta	5.5
Aruppukkottai		9.5215955	78.0706855	Asia/Calcutta	5.5
Asansol		23.68	86.97	Asia/Calcutta	5.5
Attur		11.5983176	78.5799256	Asia/Calcutta	5.5
Aurangabad_MH		19.88	75.32	Asia/Calcutta	5.5
Aurangabad_BR		24.77	84.38	Asia/Calcutta	5.5
Ayodhya	ayOdhyA	26.7897709	82.1641483	Asia/Calcutta	5.5
Badvel		14.75	79.05	Asia/Calcutta	5.5
Baharampur		24.1	88.25	Asia/Calcutta	5.5
Bahraigh		27.62	81.67	Asia/Calcutta	5.5
Baidyabati		22.79	88.32	Asia/Calcutta	5.5
Bali		22.65	88.34	Asia/Calcutta	5.5
Balurghat		25.22	88.77	Asia/Calcutta	5.5
Bandipura		34.42	74.64	Asia/Calcutta	5.5
Bangaon		23.07	88.82	Asia/Calcutta	5.5
Bankura		23.25	87.07	Asia/Calcutta	5.5
Bansbaria		22.97	88.4	Asia/Calcutta	5.5
Bapatla		15.89	80.47	Asia/Calcutta	5.5
Baramula		34.2	74.34	Asia/Calcutta	5.5
Barasat		22.23	88.45	Asia/Calcutta	5.5
Barddhaman		23.25	87.85	Asia/Calcutta	5.5
Bareilly		28.36	79.42	Asia/Calcutta	5.5
Basirhat		22.66	88.89	Asia/Calcutta	5.5
Begusarai		25.42	86.13	Asia/Calcutta	5.5
Belampalli		19.06	79.49	Asia/Calcutta	5.5
Belgaum		15.87	74.5	Asia/Calcutta	5.5
Bellary		15.15	76.92	Asia/Calcutta	5.5
Bezwada		16.52	80.62	Asia/Calcutta	5.5
Bhadreswar		22.82	88.35	Asia/Calcutta	5.5
Bhagalpur		25.25	87.02	Asia/Calcutta	5.5
Bhainsa		19.1	77.97	Asia/Calcutta	5.5
Bharatpur		27.22	77.49	Asia/Calcutta	5.5
Bhatpara		22.87	88.42	Asia/Calcutta	5.5
Bhavnagar		21.77	72.14	Asia/Calcutta	5.5
Bhayandar		19.3	72.85	Asia/Calcutta	5.5
Bhilai		21.22	81.43	Asia/Calcutta	5.5
Bhilwara		25.35	74.63	Asia/Calcutta	5.5
Bhimavaram		16.53	81.53	Asia/Calcutta	5.5
Bhimunipatnam		17.89	83.45	Asia/Calcutta	5.5
Bhiwandi		19.3	73.07	Asia/Calcutta	5.5
Bhiwani		28.78	76.13	Asia/Calcutta	5.5
Bhopal		23.25	77.42	Asia/Calcutta	5.5
Bhubaneshwar		20.26	85.83	Asia/Calcutta	5.5
Bhuj		23.25	69.81	Asia/Calcutta	5.5
Bhusaval		21.02	75.83	Asia/Calcutta	5.5
Bidar		17.92	77.52	Asia/Calcutta	5.5
Bijapur		16.82	75.72	Asia/Calcutta	5.5
Bikaner		28.02	73.32	Asia/Calcutta	5.5
Bilaspur		22.15	82.02	Asia/Calcutta	5.5
Bobbili		18.57	83.42	Asia/Calcutta	5.5
Bodhan		18.67	77.9	Asia/Calcutta	5.5
Bodinayakanur		10.0080748	77.3294266	Asia/Calcutta	5.5
Bodupal		17.41	78.58	Asia/Calcutta	5.5
Brahmapur		19.32	84.8	Asia/Calcutta	5.5
Budaun		28.03	79.09	Asia/Calcutta	5.5
Bulandshahr		28.41	77.85	Asia/Calcutta	5.5
Burhanpur		21.3	76.13	Asia/Calcutta	5.5
Calicut		11.25	75.77	Asia/Calcutta	5.5
Chakradharpur		22.7	85.63	Asia/Calcutta	5.5
Champdani		22.8	88.37	Asia/Calcutta	5.5
Chanda		19.95	79.3	Asia/Calcutta	5.5
Chandannagar		22.87	88.38	Asia/Calcutta	5.5
Chandigarh		30.74	76.79	Asia/Calcutta	5.5
Channarayapatna		12.9	76.39	Asia/Calcutta	5.5
Chengalpattu		12.6729725	79.9624583	Asia/Calcutta	5.5
Chicacole		18.3	83.9	Asia/Calcutta	5.5
Chidambaram		11.4015775	79.6626949	Asia/Calcutta	5.5
Chilakalurupet		16.09	80.17	Asia/Calcutta	5.5
Chimakurti		15.58	79.87	Asia/Calcutta	5.5
Chinchvad		18.63	73.81	Asia/Calcutta	5.5
Chirala		15.82	80.35	Asia/Calcutta	5.5
Chittaurgarh		24.89	74.62	Asia/Calcutta	5.5
Chittoor		13.2	79.12	Asia/Calcutta	5.5
Cuddalore		11.7508628	79.7316556	Asia/Calcutta	5.5
Cuddapah		14.47	78.82	Asia/Calcutta	5.5
Cuttack		20.45	85.87	Asia/Calcutta	5.5
DamDam		22.62	88.42	Asia/Calcutta	5.5
Daman		20.42	72.85	Asia/Calcutta	5.5
Darjeeling		27.04	88.26	Asia/Calcutta	5.5
Davangere		14.47	75.92	Asia/Calcutta	5.5
DehraDun		30.32	78.03	Asia/Calcutta	5.5
Deo		24.66	84.44	Asia/Calcutta	5.5
Deogar		24.4852	86.6948	Asia/Calcutta	5.5
Devakottai		9.9554415	78.7987238	Asia/Calcutta	5.5
Devarkonda		16.7	78.93	Asia/Calcutta	5.5
Dhanbad		23.79	86.44	Asia/Calcutta	5.5
Dhanushkodi		9.1726417	79.3860476	Asia/Calcutta	5.5
Dharapuram		10.7240036	77.6568252	Asia/Calcutta	5.5
Dharmapuri		12.1269508	78.1164646	Asia/Calcutta	5.5
Dharmavaram		14.41	77.72	Asia/Calcutta	5.5
Dholka		22.72	72.47	Asia/Calcutta	5.5
Dhulia		20.9	74.78	Asia/Calcutta	5.5
Dibrugarh		27.48	95	Asia/Calcutta	5.5
Dindigul		10.3623787	77.9519483	Asia/Calcutta	5.5
Dispur		26.15	91.77	Asia/Calcutta	5.5
Diu		20.72	70.99	Asia/Calcutta	5.5
Drug		21.19	81.28	Asia/Calcutta	5.5
Durgapur		23.55	87.32	Asia/Calcutta	5.5
Dwarka		22.24	68.97	Asia/Calcutta	5.5
Ellore		16.7	81.1	Asia/Calcutta	5.5
Emmiganur		15.73	77.48	Asia/Calcutta	5.5
Ennore		13.2081383	80.2986397	Asia/Calcutta	5.5
Erode		11.3466179	77.6453564	Asia/Calcutta	5.5
Etawah		26.79	79.02	Asia/Calcutta	5.5
Faridabad		28.43	77.32	Asia/Calcutta	5.5
Firozabad		27.15	78.39	Asia/Calcutta	5.5
Fyzabad		26.75	82.17	Asia/Calcutta	5.5
Gadwal		16.23	77.8	Asia/Calcutta	5.5
Gangtok		27.33	88.62	Asia/Calcutta	5.5
Gauripur		26.08	89.97	Asia/Calcutta	5.5
Gaya	gayA	24.75	85.02	Asia/Calcutta	5.5
Gandhinagar		23.22	72.68	Asia/Calcutta	5.5
Ghaziabad		28.67	77.42	Asia/Calcutta	5.5
Giddalur		15.38	78.93	Asia/Calcutta	5.5
Godhra		22.78	73.61	Asia/Calcutta	5.5
Gorakhpur		26.76	83.37	Asia/Calcutta	5.5
Gudivada		16.43	80.99	Asia/Calcutta	5.5
Gudiyatham		12.9462124	78.8481645	Asia/Calcutta	5.5
Gulbarga		17.33	76.83	Asia/Calcutta	5.5
Guntakal		15.17	77.38	Asia/Calcutta	5.5
Guntur		16.3	80.45	Asia/Calcutta	5.5
Gurugram	gurugrAmaH	28.45	77.02	Asia/Calcutta	5.5
Guwahati		26.17	91.77	Asia/Calcutta	5.5
Gwalior		26.21	78.19	Asia/Calcutta	5.5
Habra		22.83	88.63	Asia/Calcutta	5.5
Haldia		22.03	88.06	Asia/Calcutta	5.5
Halisahar		22.95	88.42	Asia/Calcutta	5.5
Handwara		34.4	74.28	Asia/Calcutta	5.5
Haora		22.59	88.31	Asia/Calcutta	5.5
Hapur		28.74	77.76	Asia/Calcutta	5.5
Haripur		31.52	75.98	Asia/Calcutta	5.5
Hassan		13.01	76.1	Asia/Calcutta	5.5
Hathras		27.6	78.05	Asia/Calcutta	5.5
Hindupur		13.83	77.49	Asia/Calcutta	5.5
Hisar		29.15	75.74	Asia/Calcutta	5.5
Hospet		15.27	76.4	Asia/Calcutta	5.5
Hosur		12.7378317	77.7626869	Asia/Calcutta	5.5
Hubli		15.36	75.12	Asia/Calcutta	5.5
Hugli		22.9	88.39	Asia/Calcutta	5.5
Ichalkaranji		16.7	74.47	Asia/Calcutta	5.5
Imphal		24.82	93.95	Asia/Calcutta	5.5
Indore		22.72	75.85	Asia/Calcutta	5.5
Itanagar		27.1	93.62	Asia/Calcutta	5.5
Jabalpur		23.17	79.93	Asia/Calcutta	5.5
Jaggayyapeta		16.89	80.1	Asia/Calcutta	5.5
Jagtial		18.8	78.93	Asia/Calcutta	5.5
Jaipur		26.92	75.87	Asia/Calcutta	5.5
Jaisalmer		26.92	70.92	Asia/Calcutta	5.5
Jalandhar		31.33	75.58	Asia/Calcutta	5.5
Jalgaon		21.02	75.57	Asia/Calcutta	5.5
Jalor		25.35	72.62	Asia/Calcutta	5.5
Jalpaiguri		26.52	88.73	Asia/Calcutta	5.5
Jammalamadugu		14.85	78.38	Asia/Calcutta	5.5
Jammu		32.73	74.85	Asia/Calcutta	5.5
Jamnagar		22.47	70.07	Asia/Calcutta	5.5
Jamshedpur		22.8	86.18	Asia/Calcutta	5.5
Jamuria		23.7	87.08	Asia/Calcutta	5.5
Jangaon		17.72	79.18	Asia/Calcutta	5.5
Jasdan		22.03	71.2	Asia/Calcutta	5.5
Jatani		20.17	85.7	Asia/Calcutta	5.5
Jaunpur		25.73	82.68	Asia/Calcutta	5.5
Jaynagar-Majilpur		22.18	88.43	Asia/Calcutta	5.5
Jhansi		25.45	78.57	Asia/Calcutta	5.5
Jodhpur		26.29	73.02	Asia/Calcutta	5.5
Jolarpet		12.5711792	78.563104	Asia/Calcutta	5.5
Jorhat		26.75	94.22	Asia/Calcutta	5.5
Junnar		19.2	73.88	Asia/Calcutta	5.5
Kadiri		14.12	78.17	Asia/Calcutta	5.5
Kagaznagar		19.33	79.47	Asia/Calcutta	5.5
Kairana		29.4	77.2	Asia/Calcutta	5.5
Kakinada		16.93	82.22	Asia/Calcutta	5.5
Kalyan		19.25	73.16	Asia/Calcutta	5.5
Kalyani		22.98	88.43	Asia/Calcutta	5.5
Kamareddipet		18.32	78.35	Asia/Calcutta	5.5
Kamarhati		22.67	88.37	Asia/Calcutta	5.5
Kanchrapara		22.97	88.43	Asia/Calcutta	5.5
Kandukur		15.22	79.9	Asia/Calcutta	5.5
Kanpur		26.47	80.33	Asia/Calcutta	5.5
Karaikudi		10.0695302	78.771433	Asia/Calcutta	5.5
Karimnagar		18.43	79.15	Asia/Calcutta	5.5
Karnal		29.68	76.97	Asia/Calcutta	5.5
Karur		10.9651437	77.997917	Asia/Calcutta	5.5
Kavali		14.91	79.99	Asia/Calcutta	5.5
Kavaratti		10.56	72.64	Asia/Calcutta	5.5
Kayalpattinam		8.5655185	78.1056828	Asia/Calcutta	5.5
Keelakarai		9.2339134	78.7665638	Asia/Calcutta	5.5
Khajuraho		24.85	79.93	Asia/Calcutta	5.5
Khambhat		22.31	72.62	Asia/Calcutta	5.5
Khammam		17.25	80.15	Asia/Calcutta	5.5
Kharagpur		22.33	87.32	Asia/Calcutta	5.5
Khardah		22.72	88.38	Asia/Calcutta	5.5
Kochi		9.97	76.28	Asia/Calcutta	5.5
Kodaikanal		10.23	77.48	Asia/Calcutta	5.5
Kohima		25.67	94.12	Asia/Calcutta	5.5
Koilkuntla		15.23	78.32	Asia/Calcutta	5.5
Kolar		13.13	78.13	Asia/Calcutta	5.5
Kolhapur		16.7	74.23	Asia/Calcutta	5.5
Kolkata	kAlIghaTTa	22.54	88.34	Asia/Calcutta	5.5
Koratla		18.82	78.72	Asia/Calcutta	5.5
Kota		25.18	75.83	Asia/Calcutta	5.5
Kothapet		19.33	79.48	Asia/Calcutta	5.5
Kottagudem		17.55	80.63	Asia/Calcutta	5.5
Kovvur		17.02	81.73	Asia/Calcutta	5.5
Krishnagiri		12.5265653	78.1974479	Asia/Calcutta	5.5
Krishnanagar		23.4	88.5	Asia/Calcutta	5.5
Kulgam		33.64	75.02	Asia/Calcutta	5.5
Kulti		23.73	86.85	Asia/Calcutta	5.5
Kumbakonam	kumbhaghONam	10.9621643	79.2980262	Asia/Calcutta	5.5
Kurnool		15.82	78.03	Asia/Calcutta	5.5
Latur		18.4	76.57	Asia/Calcutta	5.5
Lucknow	lakSmaNapurI	26.85	80.95	Asia/Calcutta	5.5
Ludhiana		30.91	75.85	Asia/Calcutta	5.5
Macherla		16.48	79.43	Asia/Calcutta	5.5
Machilipatnam		16.17	81.13	Asia/Calcutta	5.5
Madanapalle		13.55	78.5	Asia/Calcutta	5.5
Madhyamgram		22.7	88.45	Asia/Calcutta	5.5
Maduranthakam		12.5056313	79.8686741	Asia/Calcutta	5.5
Mahabalipuram		12.6223265	80.1736327	Asia/Calcutta	5.5
Mahadanapuram		10.9508	78.3003	Asia/Calcutta	5.5
Mahbubnagar		16.73	77.98	Asia/Calcutta	5.5
Mahesana		23.6	72.4	Asia/Calcutta	5.5
Maheshwar	mahEzvara	22.1738326	75.58033	Asia/Calcutta	5.5
Maihar		24.27	80.75	Asia/Calcutta	5.5
Malaut		30.19	74.5	Asia/Calcutta	5.5
Malegaon		20.55	74.55	Asia/Calcutta	5.5
Mancheral		18.87	79.46	Asia/Calcutta	5.5
Mandamari		18.98	79.48	Asia/Calcutta	5.5
Mandapeta		16.87	81.93	Asia/Calcutta	5.5
Mandsaur		24.03	75.08	Asia/Calcutta	5.5
Mandya		12.52	76.9	Asia/Calcutta	5.5
Mangalagiri		16.43	80.55	Asia/Calcutta	5.5
Mangalore		12.87	74.88	Asia/Calcutta	5.5
Mangur		17.94	80.82	Asia/Calcutta	5.5
Mannargudi		10.6661157	79.4125267	Asia/Calcutta	5.5
Markapur		15.73	79.27	Asia/Calcutta	5.5
Mathura	mathurA	27.48	77.68	Asia/Calcutta	5.5
Mauli		30.72	76.72	Asia/Calcutta	5.5
Mayiladuthurai		11.1017698	79.635059	Asia/Calcutta	5.5
Medinipur		22.43	87.33	Asia/Calcutta	5.5
Meerut		28.99	77.7	Asia/Calcutta	5.5
Melmangalam	mElmaGgalam	10.101	77.579	Asia/Calcutta	5.5
Metpalli		18.83	78.59	Asia/Calcutta	5.5
Mettupalayam		11.2971581	76.9167304	Asia/Calcutta	5.5
Mirzapur		25.15	82.58	Asia/Calcutta	5.5
Moradabad		28.84	78.76	Asia/Calcutta	5.5
Muzaffarnagar		29.47	77.7	Asia/Calcutta	5.5
Muzaffarpur		26.12	85.38	Asia/Calcutta	5.5
Nagapattinam		10.77	79.83	Asia/Calcutta	5.5
Nagari		13.33	79.58	Asia/Calcutta	5.5
Nagercoil		8.1713036	77.3800127	Asia/Calcutta	5.5
Nagpur		21.15	79.08	Asia/Calcutta	5.5
Naihati		22.9	88.42	Asia/Calcutta	5.5
NainiTal		29.39	79.45	Asia/Calcutta	5.5
Nalgonda		17.05	79.27	Asia/Calcutta	5.5
Namakkal		11.228488	78.1306654	Asia/Calcutta	5.5
Nanded		19.15	77.33	Asia/Calcutta	5.5
Nandod		21.87	73.5	Asia/Calcutta	5.5
Nandyal		15.48	78.48	Asia/Calcutta	5.5
Nanguneri		8.4983936	77.634962	Asia/Calcutta	5.5
Narasannapeta		18.42	84.04	Asia/Calcutta	5.5
Narasapur		16.43	81.68	Asia/Calcutta	5.5
Narasaraopet		16.24	80.05	Asia/Calcutta	5.5
Nasik		20	73.78	Asia/Calcutta	5.5
Navadwip		23.41	88.37	Asia/Calcutta	5.5
Navsari		20.85	72.92	Asia/Calcutta	5.5
Nellore		14.43	79.97	Asia/Calcutta	5.5
NewDelhi		28.7	77.2	Asia/Calcutta	5.5
Neyveli		11.5390014	79.4706313	Asia/Calcutta	5.5
Nidadavole		16.92	81.67	Asia/Calcutta	5.5
Nizamabad		18.67	78.1	Asia/Calcutta	5.5
Ongole		15.5	80.05	Asia/Calcutta	5.5
Ooty		11.4118505	76.658402	Asia/Calcutta	5.5
Osmanabad		18.17	76.05	Asia/Calcutta	5.5
Padmanabhapuram		8.2463135	77.3268525	Asia/Calcutta	5.5
Palakollu		16.53	81.73	Asia/Calcutta	5.5
Palghat		10.78	76.65	Asia/Calcutta	5.5
Pali		25.77	73.32	Asia/Calcutta	5.5
Palladam		11.0000595	77.2670728	Asia/Calcutta	5.5
Palmaner		13.2	78.75	Asia/Calcutta	5.5
PalaniHills		10.1999994	77.4824904	Asia/Calcutta	5.5
Paloncha		17.58	80.68	Asia/Calcutta	5.5
Pamidi		14.95	77.58	Asia/Calcutta	5.5
Panaji		15.48	73.83	Asia/Calcutta	5.5
Panchkula		30.69	76.85	Asia/Calcutta	5.5
Panihati		22.69	88.37	Asia/Calcutta	5.5
Panipat		29.4	76.97	Asia/Calcutta	5.5
Panruti		11.7786337	79.5241492	Asia/Calcutta	5.5
Paramakudi		9.5451372	78.5489356	Asia/Calcutta	5.5
Parangipettai		11.5055394	79.738867	Asia/Calcutta	5.5
Parbhani		19.27	76.76	Asia/Calcutta	5.5
Pathanamthitta		9.26	76.79	Asia/Calcutta	5.5
Pathankot		32.27	75.65	Asia/Calcutta	5.5
Patiala		30.32	76.39	Asia/Calcutta	5.5
Patna		25.61	85.14	Asia/Calcutta	5.5
Pattukkottai		10.4232264	79.3024889	Asia/Calcutta	5.5
Pedana		16.27	81.17	Asia/Calcutta	5.5
Perambalur		11.2342097	78.8631756	Asia/Calcutta	5.5
Periyakulam		10.1238772	77.5299611	Asia/Calcutta	5.5
Pilibhit		28.64	79.81	Asia/Calcutta	5.5
Pithapuram		17.12	82.27	Asia/Calcutta	5.5
Pollachi		10.6608918	76.9872494	Asia/Calcutta	5.5
Ponneri		13.3340943	80.1748404	Asia/Calcutta	5.5
Ponnuru		16.07	80.57	Asia/Calcutta	5.5
Porbandar		21.64	69.6	Asia/Calcutta	5.5
PortBlair		11.67	92.75	Asia/Calcutta	5.5
Proddatur		14.73	78.55	Asia/Calcutta	5.5
Puducherry		11.93	79.83	Asia/Calcutta	5.5
Pudukkottai	navazAlapurI	10.3833075	78.7913742	Asia/Calcutta	5.5
Pulivendla		14.42	78.23	Asia/Calcutta	5.5
Punganuru		13.37	78.58	Asia/Calcutta	5.5
Puri		19.8	85.82	Asia/Calcutta	5.5
Purnea		25.78	87.47	Asia/Calcutta	5.5
Puttur		13.45	79.55	Asia/Calcutta	5.5
Quilon		8.89	76.59	Asia/Calcutta	5.5
Raichur		16.21	77.36	Asia/Calcutta	5.5
Raiganj		25.62	88.12	Asia/Calcutta	5.5
Raipur		21.24	81.63	Asia/Calcutta	5.5
Rajahmundry		16.98	81.78	Asia/Calcutta	5.5
Rajaori		33.38	74.3	Asia/Calcutta	5.5
Rajapalayam		9.4596118	77.4863771	Asia/Calcutta	5.5
Rajgir		25.03	85.42	Asia/Calcutta	5.5
Rajkot		22.3	70.8	Asia/Calcutta	5.5
Ramanathapuram		9.367826	78.8082036	Asia/Calcutta	5.5
Rameswaram	rAmEzvaram	9.2867184	79.3028783	Asia/Calcutta	5.5
Ramgundam		18.8	79.45	Asia/Calcutta	5.5
Rampur		28.82	79.03	Asia/Calcutta	5.5
Ranchi		23.36	85.33	Asia/Calcutta	5.5
Ratlam		23.32	75.07	Asia/Calcutta	5.5
Raurkela		22.25	84.88	Asia/Calcutta	5.5
Rayachoti		14.05	78.75	Asia/Calcutta	5.5
Repalle		16.02	80.85	Asia/Calcutta	5.5
Rishra		22.71	88.35	Asia/Calcutta	5.5
Rohtak		28.9	76.57	Asia/Calcutta	5.5
Saharanpur		29.96	77.55	Asia/Calcutta	5.5
Saharsa		25.88	86.6	Asia/Calcutta	5.5
Salem		11.6537012	77.9982106	Asia/Calcutta	5.5
Samalkot		17.05	82.17	Asia/Calcutta	5.5
Sambalpur		21.47	83.97	Asia/Calcutta	5.5
Sambhal		28.58	78.55	Asia/Calcutta	5.5
Sangli		16.87	74.57	Asia/Calcutta	5.5
Sankarankoil		9.1778175	77.5263694	Asia/Calcutta	5.5
Sannai		24.16	80.83	Asia/Calcutta	5.5
Sathyamangalam		11.5034184	77.2269252	Asia/Calcutta	5.5
Sattenapalle		16.4	80.15	Asia/Calcutta	5.5
Sattur		9.3624941	77.8966934	Asia/Calcutta	5.5
Saugor		23.85	78.75	Asia/Calcutta	5.5
Secunderabad		17.45	78.5	Asia/Calcutta	5.5
Shahjanpur		27.88	79.91	Asia/Calcutta	5.5
Shantipur		23.25	88.43	Asia/Calcutta	5.5
Sengottai		8.9731289	77.2281965	Asia/Calcutta	5.5
Shiliguri		26.72	88.42	Asia/Calcutta	5.5
Shillong		25.57	91.88	Asia/Calcutta	5.5
Shimla		31.1	77.17	Asia/Calcutta	5.5
Shimoga		13.93	75.56	Asia/Calcutta	5.5
Shrirampur		22.75	88.34	Asia/Calcutta	5.5
Shrirangapattana		12.42	76.69	Asia/Calcutta	5.5
Sihor		21.7	71.97	Asia/Calcutta	5.5
Sikar		27.61	75.14	Asia/Calcutta	5.5
Silchar		24.79	92.79	Asia/Calcutta	5.5
Silvassa		20.27	73.02	Asia/Calcutta	5.5
Sirsa		29.49	75.03	Asia/Calcutta	5.5
Sirsilla		18.38	78.83	Asia/Calcutta	5.5
Sitalpur		27.63	80.75	Asia/Calcutta	5.5
Solan		30.92	77.12	Asia/Calcutta	5.5
Solapur		17.68	75.92	Asia/Calcutta	5.5
Sonipat		29	77.01	Asia/Calcutta	5.5
Sopur		34.3	74.47	Asia/Calcutta	5.5
Srinagar		34.09	74.81	Asia/Calcutta	5.5
Srikakulam		18.3031495	83.8904856	Asia/Calcutta	5.5
Srirangam	zrIraGgapuram	10.8624192	78.6812184	Asia/Calcutta	5.5
Srikalahasti	zrIkAlahasti	13.7506792	79.6976154	Asia/Calcutta	5.5
Surat		21.17	72.83	Asia/Calcutta	5.5
Suriapet		17.15	79.62	Asia/Calcutta	5.5
Tadepalle		16.47	80.6	Asia/Calcutta	5.5
Tadepallegudem		16.83	81.5	Asia/Calcutta	5.5
Tadpatri		14.92	78.02	Asia/Calcutta	5.5
Tanuku		16.75	81.7	Asia/Calcutta	5.5
Tenali		16.24	80.64	Asia/Calcutta	5.5
Tenkasi		8.9640571	77.2794588	Asia/Calcutta	5.5
Tezpur		26.63	92.8	Asia/Calcutta	5.5
Thane		19.18	72.96	Asia/Calcutta	5.5
Tharangambadi		11.0281249	79.8428982	Asia/Calcutta	5.5
Tiruchendur		8.4954858	78.1138502	Asia/Calcutta	5.5
Tiruvidaimaruthur	madhyArjunam	10.976761	79.3990667	Asia/Calcutta	5.5
Thirukoilure		11.96348	79.1902334	Asia/Calcutta	5.5
Tiruvallur		13.123055	79.894443	Asia/Calcutta	5.5
Tiruvananthapuram		8.5	76.9	Asia/Calcutta	5.5
Thondi		9.753001	78.9544909	Asia/Calcutta	5.5
Thoothukudi		8.7766073	78.0759769	Asia/Calcutta	5.5
Thuraiyur		11.1420652	78.5800422	Asia/Calcutta	5.5
Tindivanam		12.2330566	79.6389482	Asia/Calcutta	5.5
Tiruchengode		11.3805998	77.8768419	Asia/Calcutta	5.5
Tiruchirappalli		10.8158368	78.6189874	Asia/Calcutta	5.5
Tirumangalam		9.8216141	77.9716298	Asia/Calcutta	5.5
Tirunelveli		8.721555	77.6721372	Asia/Calcutta	5.5
Tiruppur		11.1085742	77.2937723	Asia/Calcutta	5.5
Tiruvannamalai		12.2408546	79.0342331	Asia/Calcutta	5.5
Titagarh		22.74	88.37	Asia/Calcutta	5.5
Tonk		26.15	75.79	Asia/Calcutta	5.5
Trichur		10.52	76.21	Asia/Calcutta	5.5
Tumkur		13.33	77.1	Asia/Calcutta	5.5
Tuni		17.35	82.55	Asia/Calcutta	5.5
Tuticorin		8.78	78.13	Asia/Calcutta	5.5
Thoothukudi		8.78	78.13	Asia/Calcutta	5.5
Udaipur		24.58	73.68	Asia/Calcutta	5.5
Udayarpalayam		11.1827486	79.2842638	Asia/Calcutta	5.5
Udhagamandalam		11.41	76.69	Asia/Calcutta	5.5
Udhampur		32.93	75.13	Asia/Calcutta	5.5
Udipi		13.33	74.75	Asia/Calcutta	5.5
Udumalaipettai		10.5807426	77.2212035	Asia/Calcutta	5.5
Ulhasnagar		19.22	73.15	Asia/Calcutta	5.5
Uluberiya		22.47	88.11	Asia/Calcutta	5.5
Umaria		23.52	80.84	Asia/Calcutta	5.5
Uran		18.89	72.95	Asia/Calcutta	5.5
Uthangarai		12.2636666	78.5177537	Asia/Calcutta	5.5
Vadodara		22.3	73.2	Asia/Calcutta	5.5
Valparai		10.32	76.97	Asia/Calcutta	5.5
Vandavasi		12.5052543	79.587364	Asia/Calcutta	5.5
Vaniyambadi		12.6770065	78.5870207	Asia/Calcutta	5.5
Vellore		12.8992994	79.0483018	Asia/Calcutta	5.5
Venkatagiri		13.97	79.58	Asia/Calcutta	5.5
Tirumala	vEGkaTAdriH	13.6823898	79.3301295	Asia/Calcutta	5.5
Vadavalli	vaDavaLLI	11.032	76.898	Asia/Calcutta	5.5
Vidisha		23.52	77.81	Asia/Calcutta	5.5
Vikarabad		17.33	77.9	Asia/Calcutta	5.5
Viluppuram		11.9336745	79.4644891	Asia/Calcutta	5.5
Vinukonda		16.05	79.75	Asia/Calcutta	5.5
Virudhachalam		11.5158673	79.3093798	Asia/Calcutta	5.5
Virudhunagar		9.5734396	77.9231708	Asia/Calcutta	5.5
Vishakhapatnam		17.73	83.32	Asia/Calcutta	5.5
Vizianagaram		18.12	83.42	Asia/Calcutta	5.5
Vrindavan		27.58	77.7	Asia/Calcutta	5.5
Wanparti		16.36	78.06	Asia/Calcutta	5.5
Warangal		17.98	79.6	Asia/Calcutta	5.5
Yavatmal		20.4	78.13	Asia/Calcutta	5.5
Yellandu		17.6	80.33	Asia/Calcutta	5.5
Yercaud		11.7747917	78.1921956	Asia/Calcutta	5.5
Warrawee		-33.7292287	151.1249595	Australia/NSW	10.0
Sammamish		47.6059848	-122.0282373	US/Pacific	-7.0
Seattle		47.0571799	-137.5684287	US/Pacific	-7.0
Nashville		36.1866405	-86.7852455	US/Central	-5.0
Mauritius		-20.2191771	57.2851023	Indian/Mauritius	4.0
McKinney		33.236594	-96.684378	US/Central	-5.0
Singapore		1.3930236	103.7412441	Asia/Singapore	8.0
SanFrancisco		37.2323916	-122.2673119	America/Los_Angeles	-7.0
Sunnyvale		37.3957342	-122.023868	America/Los_Angeles	-7.0
LosAltos		37.3679247	-122.1538679	America/Los_Angeles	-7.0
LosGatos		37.2333434	-121.9515351	America/Los_Angeles	-7.0
SanDiego		33.0368876	-117.065848	America/Los_Angeles	-7.0
Northwood		51.619	-0.435	Europe/London	1.0
Budapest		47.532	18.9927238	Europe/Budapest	2.0
Lisbon		38.7440795	-9.1597358	Europe/Lisbon	1.0
Toronto		43.7182412	-79.3780581	America/Toronto	-4.0
Brampton		43.6622912	-79.7978048	America/Toronto	-4.0
Amsterdam		52.3546656	4.9039604	Europe/Amsterdam	2.0
Sydney		-33.8482439	150.9319747	Australia/Sydney	10.0
Rotterdam		51.9278829	4.3347748	Europe/Amsterdam	2.0
Phoenix		33.6038463	-112.7494903	America/Phoenix	-7.0
Oviedo		28.669997	-81.2051	America/New_York	-4.0
Erin		43.699200	-80.135600	America/Toronto	-4.0
